stat_id,mean_summer_prec,mean_fall_prec,mean_annual_prec,mean_wet_days,mean_summer_temp,mean_winter_temp,latitude,longitude,utm_east_z33,utm_north_z33,station_name,drainage_basin_key,regine_area,gradient_1085,gradient_basin,gradient_river,length_km_basin,length_km_river,perc_agricul,perc_bog,perc_eff_bog,perc_eff_lake,perc_lake,perc_glacier,perc_forest,perc_mountain,perc_urban,area_total,area_norway,height_minimum,height_maximum,height_hypso_10,height_hypso_20,height_hypso_30,height_hypso_40,height_hypso_50,height_hypso_60,height_hypso_70,height_hypso_80,height_hypso_90,specific_runoff,annual_runoff
101.1.0,412.680606060606,609.56696969697,5.75012696041822,0.513483903455974,13.0787450592885,0.775806451612903,62.53123,6.61772,69510,6961373,Engsetvatn,1530,101.6A,20.41,24.75,49.18,11.37,12.13,5.53,1.85,,10.98,11.14,0,60.41,11.22,0.05,39.91,39.91,45,741,46,64,92,122,159,208,278,361,443,54.92,69.17
102.1.0,367.23,582.962424242424,5.32230105385445,0.500937454175917,12.3541600790514,-0.35505376344086,62.60018,6.34442,56566,6970861,Hildreelv,2284,102.11Z,34.31,,29.93,6.03,7.15,0.84,0.91,,1.99,6.18,0,25.82,29.33,0,14.25,14.25,38,785,154,218,251,285,317,362,415,500,618,46.79,21.04
103.20.0,436.782727272727,545.70696969697,5.77884324952286,0.418768180438615,9.3488208168643,-6.57254704301075,62.58323,7.95407,138554,6958919,Isa v/Morstøl bru,1544,103.4B,83.04,60.23,99.36,9.83,12.42,0.38,0.38,,0.24,2,5.25,18.18,72.75,0,44.4,44.4,110,1724,330,574,742,851,912,1001,1114,1229,1348,68.69,95.96
104.22.0,343.353333333333,450.65696969697,4.69611484524106,0.392034538144393,8.39796772068511,-7.72282594086022,62.5095,8.07138,143673,6950087,Midtre Mardalsvatn,1559,104.B3D,52.05,32.16,49.36,5.92,6.58,0,0,,3.96,7.34,0,0,80.7,0,13.681,13.681,880,1575,914,932,980,1053,1132,1188,1233,1278,1352,56.96,24.59
104.23.0,378.265151515152,462.944242424242,4.8959737781097,0.431302125782775,10.4847101449275,-5.0203561827957,62.69773,7.96078,140290,6971583,Vistdal,1560,104.2B,58.78,44.64,64.76,11.43,14.47,2.06,4.12,,0.16,2.27,0,31.93,55.23,0,66.51,66.51,46,1516,254,454,575,655,737,792,860,946,1070,58.55,122.88
109.21.0,214.031212121212,149.654848484849,1.83762426354659,0.30328864881332,7.49298089591568,-9.27192204301075,62.25589,9.54368,216855,6914632,Driva v/Svoni,1577,109.H0,35.15,,34.28,16.72,18.55,0,2.51,,0.03,1.03,0.96,0.48,87.52,0.04,135.96,135.96,989,2281,1073,1118,1173,1224,1263,1309,1383,1459,1542,17.07,73.23
109.9.0,239.87303030303,165.095757575758,2.11883080242304,0.317068895550077,7.23642951251647,-9.58408266129032,62.51138,9.59264,221773,6942810,Driva v/Risefoss,1573,109.F3,15.14,21.72,20.22,37.32,53.11,0.19,1.22,,0.03,1.87,0.9,6.79,83.98,0.1,745.99,745.99,556,2283,1026,1141,1230,1290,1347,1400,1462,1529,1617,19.4,455.69
111.10.0,442.505757575758,505.952121212121,5.47734461870384,0.441257304856188,9.34360671936759,-6.66998991935484,62.78271,8.89333,188729,6976151,Nauståa,1594,111.B0,54.37,41.44,80.21,8.12,9.44,0,0.89,,0.32,2.94,0,5.32,85.11,0,24.79,24.79,217,1373,615,754,840,907,943,988,1043,1113,1216,70.83,55.41
111.9.0,472.073636363636,553.525454545455,5.89621442203967,0.46475174571996,11.3269894598155,-3.96630712365591,62.90028,8.6049,175363,6990631,Søya v/Melhus,1593,111.7A0,27.88,39.25,40.54,18.1,24.2,3.05,6.09,,0.02,0.93,0,35.89,37.15,0,137.43,137.43,28,1421,147,289,409,509,577,632,701,787,910,61.07,264.86
112.8.0,355.645757575758,352.103636363636,4.03010455563854,0.416768005383513,9.76445322793149,-6.20003696236559,62.98495,9.4071,216824,6996240,Rinna,1602,112.CB6,22.69,23.14,23.25,14.46,17.98,0,6.83,,0.57,2.28,0,15.94,62.62,0,87.83,87.83,453,1587,594,657,722,776,810,864,934,1037,1164,41.2,114.27
114.1.0,373.473636363636,604.41696969697,5.45273089370177,0.480942751297852,12.3920652173913,-0.872503360215054,63.22446,8.13032,155200,7029084,Myra,1614,114.31Z,26.24,,38.66,6.28,7.88,1.71,13.52,,0.01,0.43,0,39.1,42.08,0,16.46,16.459,30,891,46,60,81,159,212,286,375,463,586,46.98,24.03
12.114.0,280.757575757576,267.088484848485,2.51572068707991,0.310442264212712,13.2102898550725,-5.66956653225807,60.20725,10.02315,224317,6684893,Garhammerfoss,456,012.DB0,16.35,19.48,19.9,34.75,50.15,2.23,2.84,,0.28,3.45,0,83.22,6.29,0,492.33,492.33,131,1227,213,256,320,389,446,507,570,639,797,18.48,287.17
12.150.0,256.433939393939,182.138181818182,1.96692390672973,0.309611320836218,10.0663833992095,-7.62531922043011,60.48611,8.8188,160638,6721504,Buvatn,485,012.CCC,23.67,11.24,19.49,6.15,9.75,0.11,14.72,,4.72,12.6,0,71.6,0.03,0,25.05,25.05,840,1085,860,877,902,912,933,962,986,1004,1023,11.49,9.08
12.171.0,277.950909090909,194.208181818182,2.03591901087047,0.319830219284934,10.214733201581,-7.82127688172043,60.70962,9.45899,197824,6743203,Hølervatn,502,012.HB,12.26,11.58,16,14.21,18.06,0,17.61,,2.4,6.29,0,60.37,7.55,0,79.4,79.4,780,1203,819,830,842,866,902,936,970,1017,1060,16.54,41.46
12.178.0,317.234545454545,289.49696969697,2.71000912787321,0.328958092490477,10.9819664031621,-7.07944556451613,60.15247,9.43342,191185,6681418,Eggedal,507,012.BC22,22.86,25.78,22.58,29.88,37.15,1.6,6.98,,0.59,3.23,0,62.44,20.46,0.06,310.59,310.59,170,1463,394,561,689,777,847,909,961,1008,1072,20.77,203.62
12.192.0,314.753939393939,397.230303030303,3.40312588166957,0.342733110308586,14.8530335968379,-3.24662970430108,59.51704,10.12356,224211,6607750,Sundbyfoss,514,012.AE1Z,27.28,18.61,28.87,11.52,16.52,12.61,0.66,,0.42,1.15,0,83.84,0,1.05,74.77,74.77,54,625,79,101,130,162,194,251,324,390,450,21.03,49.65
12.193.0,270.870303030303,266.710303030303,2.43146792797278,0.308857901862291,14.3724209486166,-4.11089045698925,59.69721,9.7902,206957,6629206,Fiskum,515,012.AB3Z,7,16.38,25.25,11.07,21.58,4.56,2.99,,0.11,1.26,0,88.19,0,0.47,51.54,51.54,80,646,173,205,227,252,277,309,338,367,472,17.42,28.34
12.207.0,288.231515151515,240.172727272727,2.40634968052444,0.338749356331482,9.8937977602108,-7.38058467741936,61.15174,9.07559,181407,6794136,Vinde-elv,524,012.LBA,14.13,12.87,22.63,20.51,27.93,0.99,14.53,,1.26,7.37,0,32.27,24.49,0.03,269.88,269.88,566,1676,848,880,911,939,981,1014,1041,1080,1149,16.13,137.38
12.212.0,250.544545454545,205.775757575758,1.94196249273919,0.285782229178957,10.9950592885376,-7.23046034946237,60.47921,9.4488,195102,6717650,Hangtjern,527,012.CC1D,54.59,17.56,48.04,4.4,5.5,0,12.27,,0.7,2.54,0,80.19,4,0,11.02,11.02,586,1047,665,720,753,778,795,809,836,862,914,22.11,7.69
12.215.0,255.959090909091,249.515454545455,2.36836860011617,0.351456992712479,7.05792490118577,-9.06379704301075,60.89172,8.33281,138604,6769129,Storeskar,529,012.CDD,14.41,25.5,13.51,18.51,17.02,0,4.17,,0.34,3.34,0,8.35,78.46,0,119.67,119.67,895,1814,1006,1118,1207,1279,1347,1399,1457,1511,1588,30.14,113.84
12.70.0,301.393939393939,244.900606060606,2.49005642685254,0.341579792730212,10.3082246376812,-7.32817876344086,60.95266,9.62473,209068,6769458,Etna,426,012.EF61,11.43,13.65,12.37,46.33,61.02,1.42,17.77,,0.3,4.42,0,49.13,12.35,0.02,568.53,568.53,399,1681,757,835,880,909,936,963,993,1024,1069,12.74,228.61
121.20.0,313.186060606061,277.221818181818,3.11915691643847,0.400569270099793,11.5410638998682,-4.31685819892473,63.14046,9.81618,238900,7011786,Åmot,1630,121.AA4,12.64,22.7,18.04,23.55,40.41,3.35,14.74,,0.69,4.92,0,59.29,13.97,0.03,282.67,282.67,205,1226,286,336,377,418,460,509,552,627,746,22.73,202.76
121.29.0,257.220303030303,189.242121212121,2.48480624014605,0.330269869038322,9.42840909090909,-6.97595430107527,62.70466,9.91503,240033,6962945,Gisnås,1644,121.CAB,20.94,17.94,26.16,13.35,20.57,1.42,15.4,,0.02,0.56,0,29.59,46.77,0,94.57,94.57,582,1564,639,724,804,858,910,957,1017,1093,1184,25.75,76.84
122.11.0,279.020606060606,227.070909090909,2.61292091942577,0.414858995388321,9.82264163372859,-7.25491599462366,62.89011,11.18388,306061,6979097,Eggafoss,1661,122.F0,14.47,28.58,15.05,32.97,45.43,2.11,12.57,,0.15,2.84,0,24.55,43.96,0.04,655.18,655.18,285,1284,623,717,775,811,844,878,918,964,1021,25.63,529.91
122.14.0,321.566060606061,225.288181818182,2.6222836279147,0.38680721090616,9.36168642951252,-7.64975806451613,62.82336,10.54863,273299,6973749,Lillebudal bru,1664,122.CB,20.03,,20.23,23.2,29.76,0.59,8.33,,0.02,0.59,0,21.41,64.84,0,168.11,168.11,516,1315,675,770,847,907,948,983,1015,1045,1088,28.95,153.6
122.17.0,299.758181818182,237.084545454545,2.78114679279728,0.399084029859399,10.7672002635046,-5.61056787634409,62.99406,10.24644,259333,6993830,Hugdal bru,1666,122.BA0,21.06,,21.87,35.03,45.45,6.23,16.3,,0.01,0.92,0,53.3,20.7,0,545.94,545.94,131,1254,443,502,542,583,623,663,717,816,933,22.96,395.61
123.31.0,448.567878787879,374.395757575758,4.34269770143557,0.465907109396935,10.9111594202899,-5.24224462365591,63.26617,11.1311,305905,7021101,Kjeldstad i Garbergelva,1691,123.B8Z,15.18,18.33,20.62,21.46,33.3,0,14.69,,0.12,1.4,0,41.96,34.97,0,142.98,142.98,200,1166,380,455,510,539,578,622,681,742,840,39.58,178.46
123.95.0,278.132121212121,334.845454545455,3.21670068873952,0.430869262256415,12.1355270092227,-3.4428125,63.4226,10.28154,264619,7041350,Kobberdammen,2431,123.1,130.3,,132.31,1.49,0.91,3.66,14.63,,11.76,8.54,0,56.1,12.2,0,1.02,1.02,287,546,289,301,315,335,355,385,417,437,463,22.06,0.71
124.13.0,305.372121212121,293.052727272727,3.0282499377645,0.442426763879085,10.913722002635,-5.4342372311828,63.56163,11.94146,348104,7051798,Feren,1712,124.AE21,5.5,14.47,8.85,20.57,23.51,0.18,19.58,,11.94,14.81,0,24.54,34.37,0,219.89,219.89,401,1246,401,449,498,539,584,615,648,711,804,42.05,291.8
124.15.0,285.697878787879,295.867272727273,3.00821840511161,0.442667066792615,13.370744400527,-2.18327620967742,63.46709,11.05987,303711,7043675,Børstad,1714,124.A2Z,16.96,20.32,21.07,10.65,15.33,26.96,6.43,,0.18,2.07,0,59.93,0,0.26,48.42,48.42,13,438,72,92,106,127,156,182,210,248,306,25.16,38.45
124.2.0,331.183939393939,313.667575757576,3.27074350676292,0.476963771550818,11.2821805006588,-4.99109206989247,63.49292,11.35831,318730,7045669,Høggås bru,1701,124.AB0,7.07,15.46,8.82,39.8,57.91,0.45,26.18,,2.38,7.39,0,28.68,27.43,0,494.5,494.5,98,1246,378,402,434,469,505,547,596,648,750,41.66,650.07
127.11.0,340.573939393939,396.685454545455,4.28560783337482,0.493144546635702,11.0967358366271,-5.67800067204301,63.78934,12.32654,368281,7076298,Veravatn,1729,127.D3,11.4,6.37,15.17,21.47,27.83,0,20.58,,3.76,4.57,0,33.16,24.01,0,176.13,97.514,361,1224,399,440,466,493,517,547,580,634,723,36.19,200.46
127.13.0,324.65,316.941212121212,3.27528420877935,0.469405938005486,11.5272068511199,-4.91142809139785,63.7642,11.76507,340492,7074780,Dillfoss,1731,127.AA0,8.22,16.66,10.17,33.53,53.19,1.43,21.26,,0.19,2.65,0,41.09,21.15,0.06,479.64,447.567,39,1031,271,356,421,469,507,538,565,598,643,34.49,525.2
128.5.0,336.356363636364,378.511212121212,3.98754875114098,0.476369720923518,12.0833432147563,-4.55146505376344,64.01762,11.71813,339631,7103107,Støafoss,1736,128.AA3,4.82,15.38,6.69,34.47,54.73,1.99,19.44,,0.3,4.79,0,53.02,16.09,0.01,477.08,477.08,78,817,184,259,290,327,358,400,434,487,579,36.54,550.17
131.2.0,295.942727272727,532.120606060606,5.2724313334993,0.493472604444808,12.4937516469038,-3.0503561827957,63.76617,10.65073,285618,7078263,Store Grønsjø,1749,131.1C30,52.42,18.25,39.31,10.89,0.41,2.16,20.91,,6.1,10.05,0,52.29,13.24,0,40.7,40.7,223,547,231,257,282,308,331,351,373,394,420,57.54,74.23
133.7.0,378.355454545455,639.242121212121,6.24089121234752,0.514973008549282,12.3731422924901,-2.88811491935484,63.80409,10.23191,265316,7083953,Krinsvatn (Kringsvatnet),1762,133.3B21,12.83,18.4,14.69,22.87,31.58,0.35,8.98,,1.07,7.55,0,20.18,57.01,0,206.61,206.611,87,627,225,266,297,324,348,369,390,415,455,63.74,413.69
138.1.0,304.457575757576,546.725454545455,5.20739855613642,0.510831477635574,12.3218148880105,-3.28381048387097,64.24378,11.08169,310110,7130031,Øyungen,1768,138.B31,9.1,,10.68,21.78,28.27,0,18.38,,1.44,5.85,0,39.26,26.31,0,239.41,239.41,103,682,179,207,234,264,294,337,388,438,501,50.58,381.36
139.13.0,345.171212121212,553.728484848485,5.46558874782176,0.516812451192023,12.2580632411067,-4.45470766129032,64.56294,12.19391,365550,7162721,Grongstadvatn,2325,139.AC1,5.94,,11.39,32.34,45.55,2.97,10.39,,2.49,8.06,0,48.35,24.18,0,471.61,471.61,13,814,79,148,178,211,254,305,365,455,568,68.11,1013.95
139.20.0,339.810909090909,533.032727272727,5.59448759439051,0.487998381308662,10.5875263504611,-6.93126344086022,64.92564,13.07912,409177,7201547,Moen,1784,139.E8Z,24,,32.74,14.55,16.89,0,8.57,,0.02,1.25,0,28.11,59.39,0,64.06,64.06,200,1098,269,327,405,485,556,635,724,784,866,61.49,124.31
139.25.0,278.906060606061,277.697878787879,3.20483030453904,0.466154914672005,10.7355862977602,-6.82851142473118,64.48851,13.40966,423580,7152409,Skjellbreivatn,1789,139.BC3,12.21,,14.9,34.16,42.91,0.64,15.12,,4.68,12.44,0,48.32,19.6,0.01,545.97,545.97,353,1384,409,464,507,538,563,599,640,699,801,35.18,606.06
139.26.0,375.164545454546,427.949393939394,4.91114430337731,0.50226173465966,10.9130401844532,-6.37741935483871,64.38757,12.44005,376550,7142690,Embrethølen,1790,139.BAC0,7.86,,12.17,45.41,57.14,0,10.52,,0.04,3.24,0,18.82,61.51,0,494.24,494.24,138,1068,312,393,449,514,574,627,665,714,773,40.53,632.2
139.35.0,311.750303030303,340.062424242424,3.86606920587503,0.492136502058034,10.848162055336,-6.65356518817204,64.43047,12.48165,378745,7147388,Trangen,1796,139.BB2,5.99,,9.23,74.68,92.45,0.46,13.56,,2.09,9.34,0,42.11,29.23,0.01,852.25,852.25,138,1384,384,429,485,525,558,596,640,697,780,41.17,1107.25
140.2.0,400.869696969697,628.095454545455,5.9536735540619,0.528605481498154,12.1657015810277,-3.70294690860215,64.70538,11.45436,331029,7180349,Salsvatn,1797,140.B2,4.96,59,6.61,38.64,46.26,0,3.24,,10.64,13.89,0,29.17,42.37,0,431.9,431.9,9,763,9,88,155,216,270,333,406,485,569,59.26,808.05
142.1.0,512.289393939394,828.336060606061,8.48943407186126,0.526851065619519,10.6596772068511,-6.49672043010753,64.88863,12.47703,380555,7198425,Første Aunvatn,1799,142.3AA,49.04,64.4,41.86,14,19.74,0,0.3,,1.66,5.7,0,9.71,73.36,0,87.29,87.29,20,925,204,363,473,559,625,679,722,768,824,110.8,306.05
148.2.0,414.632121212121,634.358787878788,6.1805667579454,0.52611265136867,12.4836330698287,-3.06537970430108,65.36555,12.5381,385517,7251432,Mevatnet,1808,148.2A0,1.62,29.3,3.08,14.13,21.4,1.37,2.15,,4.02,9.52,0,59.91,17.4,0,108.47,108.47,15,783,37,56,92,121,158,208,265,329,410,58.2,200.02
149.1.0,389.403333333333,689.509090909091,7.05193676873289,0.512582483349873,10.5387812911726,-6.39257728494624,65.60201,12.8259,399806,7277281,Møllehusfoss,1810,149.2AA,37.45,29.62,41.73,11.32,18.62,0,0,,0.7,6.31,0.13,11.56,75.69,0,95.12,95.12,20,1234,198,391,487,555,588,630,680,726,788,88.6,265.74
15.21.0,318.748181818182,310.6,2.87363953198905,0.332441234343083,12.4296805006588,-5.44358870967742,59.70734,9.5548,193828,6631396,Jondalselv,567,015.DZ,22.3,17.65,22.92,19.05,29.05,1.33,5,,0.25,3.36,0,77.14,9.4,0.03,126.87,126.87,229,920,351,416,477,527,574,636,692,724,753,22.5,90.09
15.49.0,230.238787878788,194.893636363636,2.02469587586092,0.325882806292435,9.3903722002635,-7.58556451612903,60.49297,8.47906,142101,6724067,Halledalsvatn,586,015.MAA,24.35,12.55,21.41,11.04,11.12,0,5.07,,3.85,5.07,0,59.19,18.6,0,59.19,59.19,846,1185,886,936,963,995,1028,1049,1066,1083,1101,14.52,27.21
150.1.0,410.684545454545,669.518181818182,6.11027964484275,0.538730714099779,13.0788076416337,-0.831649865591398,65.97855,12.56823,389560,7319661,Sørra,1811,150.40,11.44,11.4,10.48,2.48,3.15,31.97,16.36,,0,0.45,0,37.42,0,1.06,6.58,6.58,35,165,49,52,56,62,69,73,77,85,100,43.3,8.99
151.11.0,365.730606060606,653.444242424243,6.62901004066053,0.50684999710136,10.5849571805007,-6.38949596774194,65.7732,12.9829,407651,7296113,Lavvatn,1823,151.1D,21.29,,37.71,11.63,15.22,0,1.36,,1.42,4.07,0,9.5,78.68,0,73.72,73.72,226,999,325,422,464,497,533,574,620,675,761,79.47,185.32
151.15.0,270.123333333333,341.875151515152,3.7147979420795,0.458603446766766,8.91283926218709,-8.83712029569893,65.43757,13.98604,452970,7257601,Nervoll,1827,151.H2,8.23,,7.86,31.49,67.55,0,4.95,,0.17,2.16,1.6,25.86,55.51,0,653.36,634.767,345,1692,599,678,730,774,827,874,917,986,1083,42.51,878.57
152.4.0,370.941212121212,688.085454545455,6.8616264210439,0.527032486362185,11.1116106719368,-5.93959005376344,65.90524,13.30759,422910,7310387,Fustvatn,1835,152.B2,11.83,26.21,13.57,26.48,48.35,1.14,6.47,,2.77,5.9,0.57,37.47,35.95,0,525.69,525.69,39,1530,83,175,256,345,436,509,591,685,811,63.39,1051.28
153.1.0,434.020909090909,820.907272727273,7.64450087129699,0.532499207136792,10.7769532279315,-5.81165322580645,66.09342,13.11638,414832,7331603,Storvatn,1836,153.22B0,39.63,38.8,39.26,13.7,15.11,0,0.33,,8.09,12.8,0,9.63,64.41,0,48,48,51,991,73,194,319,462,516,581,656,734,734,96.01,148.64
156.15.0,415.807878787879,765.199696969697,7.29049207534644,0.494562492966536,10.6448418972332,-6.4337063172043,66.29299,13.81261,446730,7353074,Forsbakk,1865,156.5Z,44.36,35.13,60.43,9.96,14.47,0.04,2.69,,0.03,1.87,0,24.71,58.15,0,56.3,56.3,49,1194,231,287,330,374,445,512,581,682,872,85.11,151.07
156.17.0,273.918181818182,299.251515151515,3.49300555970459,0.429964431985977,8.46846837944664,-10.3070900537634,66.3079,15.36112,516192,7354277,Virvatn,1867,156.GD4,26.5,,29.15,11.12,17.11,0,1.85,,3.18,3.9,0,1.91,92.13,0,79.06,39.919,642,1250,657,693,736,780,833,909,980,1027,1075,28.97,72.42
156.27.0,541.004848484849,949.469696969697,9.07067463281055,0.533667984126822,10.2366798418972,-6.73921706989247,66.44086,13.85676,449012,7369517,Leiråga,1876,156.CCAA,40.31,,51.89,11.1,11.27,0,0.41,,0.12,2.63,12.5,3.52,65.64,0,43.75,43.75,78,1287,275,346,393,442,494,573,686,855,1015,96.81,134.48
156.8.0,456.068181818182,858.181212121212,8.03982657040909,0.513248602116803,8.62679841897233,-9.18030241935484,66.48089,14.22483,465482,7373727,Svartisdal,1861,156.CAAA,36.8,,36.08,14.83,20.4,0,0.1,,3.86,6.31,45.85,6.04,32.15,0,121.98,121.98,71,1578,237,421,600,782,902,1010,1113,1208,1280,86.28,332.1
157.3.0,620.657878787879,1012.59060606061,9.30039249854784,0.555659451895654,11.0571936758893,-5.01079637096774,66.39262,13.18077,418712,7364857,Vassvatn,1887,157.6B,117.29,48.96,128.58,3.84,4.46,0.61,0.24,,6.14,10.96,0,29.09,57.2,0,16.33,16.33,108,1160,161,192,244,348,471,532,615,704,826,122.81,63.25
157.4.0,554.824848484849,939.64,8.6660550991619,0.549600499248059,11.114034914361,-4.84540994623656,66.33747,13.36809,426920,7358480,Flostrand,1888,157.42A,22.75,50.78,58.71,7.6,10.26,0.18,0.12,,6.08,6.33,0,9.65,66.83,0,33.16,33.16,0,1152,31,135,240,331,417,508,583,668,774,105.33,110.32
159.5.0,532.370303030303,823.216363636364,7.51337233424612,0.544954946045517,11.1763669301713,-4.57169690860215,66.62798,13.41704,429932,7390797,Strømdalen,1895,159.52B,29.84,47.02,60.43,6.15,7.02,0.76,1.47,,0.2,3.21,0,19.47,57,0,22.44,22.44,77,879,188,242,305,359,416,461,515,582,635,74.13,52.38
16.122.0,322.446363636364,361.803333333333,3.43472989793378,0.378351594763352,10.1273418972332,-6.41444220430108,59.6414,8.31172,123333,6630479,Grovåi,677,016.CDA4,25.36,24.65,20.47,12.05,18.53,0,11.64,,0.27,3.1,0,59.79,21.85,0,42.16,42.16,717,1199,790,822,848,880,914,946,992,1048,1093,19.14,25.47
16.127.0,243.748787878788,246.750909090909,2.33578624180566,0.343320567951503,7.77361330698287,-8.45623655913979,60.12529,8.4502,136450,6683413,Viertjern,679,016.G51B,20.61,13.97,20.26,9.17,12.29,0,1.97,,1.74,9.83,0,0,88.18,0,46.72,46.72,1104,1450,1173,1196,1211,1233,1258,1268,1285,1303,1334,29.48,43.46
16.128.0,273.744545454545,262.949090909091,2.46761845490001,0.343322159361526,9.23834321475626,-7.63270833333333,59.99525,8.82766,156006,6666952,Austbygdåi,680,016.G51A0,24.19,18.43,24.73,34.75,47.67,0.89,5.62,,0.14,4.18,0,33.23,53.67,0.04,342.92,342.92,201,1484,734,839,936,1041,1137,1190,1221,1255,1297,25.49,275.84
16.140.0,227.04696969697,320.312121212121,3.23257737947058,0.427417266571409,7.19847826086957,-8.05318884408602,60.01842,7.86546,102789,6674926,Kvenna,687,016.K1,3.53,16.21,8.43,48.7,61.56,0,3.44,,0.99,9.67,0.04,0.96,85.08,0,821.46,821.46,937,1620,1153,1197,1232,1260,1285,1310,1334,1362,1400,35.83,928.77
16.154.0,275.862727272727,321.565757575758,2.70153099327857,0.314833419155802,15.537196969697,-2.15292002688172,59.22058,9.39876,180499,6578048,Brusetbekken,694,016.B4,15.33,20.59,17.22,3.98,3.59,5.81,1.33,,0.48,1.46,0,89.81,0,0,7.72,7.72,64,308,94,107,114,120,126,133,150,164,202,9.24,2.25
16.189.0,301.184848484849,330.472424242424,3.11263878516306,0.388979485588077,11.2160836627141,-5.76601142473118,59.54482,8.01581,105576,6621482,Bjørntjønn,698,016.BE5B,10.48,23.86,17.38,8.33,12.42,0.29,5.53,,1.46,4.98,0,87.94,0.49,0,33.82,33.82,526,1021,651,673,694,717,734,744,763,794,849,22.7,24.94
16.193.0,377.258181818182,397.333636363636,3.49267446684922,0.361413990540204,12.7043412384717,-4.94493951612903,59.43142,9.1337,167474,6602769,Hørte,701,016.CA1A0,10.25,28,29.89,17.88,27.2,1.08,2.81,,0.27,3.14,0,73.05,18.38,0.05,156.63,156.63,96,1204,260,311,369,429,502,579,672,771,913,15.57,76.94
16.194.0,312.999090909091,334.866060606061,2.91891627250851,0.349954246961828,12.9963965744401,-4.31833669354839,59.34851,8.78597,146937,6595356,Kilen,702,016.BB1Z,17.5,31.12,27.17,15.52,27.06,0.61,1.51,,0.85,4.85,0,81.08,9.26,0,118.08,118.08,120,1070,249,342,405,450,491,532,569,632,740,15.69,58.46
16.66.0,265.884848484849,282.516363636364,2.69309600862999,0.380174213928703,9.61840579710145,-6.65053427419355,59.83555,8.32061,126013,6651976,Grosettjern,643,016.H5Z,43.95,18.15,30.84,2.46,3.52,0,20.22,,3.06,7.1,0,66.82,2.47,0,6.55,6.55,939,1058,952,965,979,991,1005,1017,1025,1037,1058,29.12,6.02
16.75.0,298.841818181818,328.781818181818,3.19346610239814,0.389311180905808,10.2721343873518,-6.31123655913979,59.67317,8.06739,109976,6635419,Tannsvatn (Lognvikvatnet),645,016.BG11A,12.79,19.71,14.77,14.61,20.12,1.56,19.48,,4.59,6.69,0,53.16,16.4,0.12,118.02,118.02,697,1287,737,794,835,871,905,923,955,1012,1072,22.78,84.83
160.7.0,431.622424242424,763.729696969697,7.1551265455149,0.521044010444197,10.6719400527009,-5.44068884408602,66.98047,14.08406,460032,7429497,Skauvoll,1907,160.72Z,22.3,36.6,48.81,11.03,11.3,0,0,,1.49,7.83,0,12.18,58.41,0,19.66,19.66,236,1060,375,389,407,429,458,486,529,617,758,83.14,51.19
161.11.0,235.647272727273,485.514242424242,4.38339556883246,0.440094211473384,8.70540513833992,-9.2298185483871,66.89481,14.74529,488846,7419677,Klipa,1922,161.D0,12.27,34.35,22.4,28.58,32.06,0.57,0.6,,0.01,0.94,14.18,23.14,58.05,0,350.056,350.056,114,1626,343,507,653,758,843,928,1000,1072,1168,69.24,764.85
161.7.0,188.922424242424,334.286363636364,3.15713799684673,0.401648473439935,8.69559947299078,-9.50781922043011,66.89693,14.85457,493632,7419897,Tollåga,1918,161.CZ,15.15,18.85,14.73,27.84,45.32,0.09,2.84,,0.01,2.05,0.11,12.09,71.87,0,225.676,225.676,374,1411,561,637,666,716,795,871,922,980,1035,39.97,284.63
162.3.0,187.023636363636,322.013636363636,2.94624595469256,0.403725263520449,10.6535968379447,-6.79637768817204,67.08398,14.98147,499195,7440743,Skarsvatn,1932,162.7A12,15.6,,14.62,18.32,29.78,1.04,6.03,,0.76,6.16,0,44.13,35.27,0.04,145.39,145.39,162,831,287,373,431,475,520,556,576,600,630,36.04,164.98
163.5.0,236.836363636364,277.767272727273,3.03802588996764,0.399653527303481,8.40320816864295,-10.9514415322581,66.8148,15.41069,518043,7410794,Junkerdalselv,1938,163.CA20,25.87,,24.54,29.78,40.4,0.39,0.68,,0.02,2.08,0.55,18.29,66.89,0,421.98,314.051,117,1695,486,620,691,752,834,943,1042,1139,1234,31.17,413.9
163.6.0,184.702121212121,294.011515151515,2.78477802671977,0.373335925058229,9.52470685111989,-8.51796370967742,66.9356,15.14655,506407,7424209,Jordbrufjell,1939,163.BA,14.17,,22.27,14.69,21.64,0,6.01,,1.38,4.69,0,18.72,62.71,0,70.06,70.06,434,1013,496,532,583,617,664,703,737,778,840,35.36,78.18
163.7.0,223.868787878788,277.179090909091,3.02537548751141,0.370011924207961,7.83169960474308,-11.2009845430108,66.76917,15.40877,517992,7405707,Kjemåvatn,1940,163.D1A,31.88,19.52,33.43,10.25,13.32,0,1.21,,7.14,7.48,0.41,4.88,82.73,0,36.39,36.39,626,1501,636,723,790,874,935,975,1044,1094,1221,33.99,39.03
166.13.0,281.107878787879,455.989090909091,4.29503609658949,0.438839270997803,12.1893148880105,-4.06158938172043,67.34409,15.53598,523039,7469838,Vallvatn,1972,166.3Z,48.96,19.06,49.09,8.74,11.28,11.45,13.95,,2.71,4.21,0,48.8,8.61,0.02,52.82,52.82,31,813,37,40,46,60,97,168,278,390,459,46.34,76.81
168.1.0,380.595454545455,680.673939393939,6.1562783171521,0.475546507252851,10.744512516469,-5.99797715053763,67.84659,15.50398,521208,7525847,Storvatn,1986,168.7B,25.61,46.52,39.37,11.05,14.05,0,0.74,,9.41,12.92,0.42,20.62,56.3,0,71.3,71.3,56,1170,61,139,246,361,453,516,610,696,809,69.21,155.67
168.2.0,322.044545454546,572.114242424243,5.39297817608497,0.461091957354758,11.2098682476943,-5.89574260752688,67.71571,15.87357,536966,7511430,Mørsvik bru,1987,168.5Z,36.51,34.15,40.36,6.93,10.09,0.03,3.97,,4.28,9.35,0,52.39,28.53,0,31.23,31.23,76,1094,148,241,313,339,367,407,471,586,779,53.53,52.52
168.3.0,315.443939393939,524.252727272727,4.7595311592399,0.476290377766638,11.9124044795784,-3.55602150537634,67.79663,15.29608,512486,7520221,Lakså bru,1988,168.8A,10.94,46.38,21.92,7.67,8.41,0,3.9,,7.43,10.12,0,42.63,24.22,0,26.67,26.67,19,926,35,79,100,149,217,286,373,473,577,68.97,58.35
170.5.0,249.227575757576,384.264545454545,3.48522446270019,0.45138344683497,12.3864163372859,-2.66428427419355,68.05872,15.82985,534603,7549643,Kaldvågvatn,1993,170.6A,70.84,18.51,60.49,4.43,5.52,0,7.92,,16.94,18.89,0,48.67,4,0,12.76,12.76,40,412,40,44,67,92,117,156,213,257,311,32.29,12.94
171.7.0,289.22696969697,442.248484848485,4.57568998423367,0.448301112963967,8.7622233201581,-9.79396505376344,67.77953,16.4793,562425,7519030,Ravggajokka,2000,171.AB,9.18,26.93,12.33,15.65,22.38,0,0.51,,1.01,5.19,0,0.3,93.9,0,74.96,69.765,452,1269,595,640,679,724,764,811,849,903,980,46.82,100.8
172.8.0,351.387575757576,509.887878787879,5.02660858020081,0.435105141050081,9.28658432147563,-8.75364583333333,68.20586,16.88333,578022,7567007,Rauvatn,2008,172.G,47.76,22.34,41.02,5.63,7.87,0,0.6,,5.79,10.32,0,1.47,82.52,0,19.94,19.94,472,1001,491,507,539,590,619,661,702,749,824,45.98,30.76
174.11.0,253.865454545455,311.164242424242,3.12247697286532,0.425316150651967,9.39397562582345,-8.84047043010753,68.43661,17.48149,601757,7593594,Taraldsvikelv,2336,174.311B,239.94,,262.96,2.62,2.29,0,0.35,,0,0.35,0,15.14,82.75,0,2.84,2.84,292,1262,473,556,617,677,752,825,888,961,1042,46.69,4.17
174.3.0,259.019696969697,294.032727272727,3.09916687411833,0.407465986452554,8.57456851119895,-9.87613239247312,68.34785,17.48969,602493,7583718,Øvstevatn (Litlevatnet),2026,174.1D,98.53,,82.82,6.65,7.69,0.53,2.81,,0.9,1.62,6.08,23.66,54.29,0,28.43,28.43,275,1541,334,430,504,605,727,830,919,1009,1148,43.29,38.84
177.4.0,366.332121212121,711.213333333333,6.65068293087711,0.502267418266886,11.242592226614,-4.47091397849462,68.40743,15.70544,528971,7588456,Sneisvatn,2047,177.73Z,21.91,,18.6,7.28,9.68,0,1.71,,2.27,10.05,0,19.97,54.5,0,29.25,29.25,18,970,88,138,191,235,302,387,457,556,624,94.01,86.89
178.1.0,301.805454545455,653.722727272727,6.26927557879014,0.508000813892555,11.2865711462451,-3.97859879032258,68.61924,15.71249,528987,7612074,Langvatn,2048,178.9Z,74.38,52.76,64.59,5.89,6.94,0.54,4.56,,6.29,8.42,0,31.88,50.08,0,18.41,18.41,27,1091,41,86,154,249,356,409,476,572,687,73.6,43.36
179.6.0,227.287878787879,456.051515151515,4.17086963737449,0.485986839039107,11.2849143610013,-3.46839045698925,68.24138,14.33103,472326,7569926,Jordelv,2339,179.50,93.08,,115.47,2.91,3.78,1.13,6.6,,0,0.19,0,30,56.6,0,5.3,5.3,13,716,35,95,191,261,318,373,424,484,542,38.8,6.49
18.10.0,343.881818181818,451.496666666667,3.8579122064559,0.34613963713578,14.4624868247694,-2.44762768817204,58.88361,9.03327,156332,6542433,Gjerstad,718,018.2E10,12.81,23.43,18.42,21.15,30.19,1.38,4.84,,0.19,3.46,0,81.55,2.9,0.07,235.89,235.89,50,657,148,197,237,274,313,346,380,415,473,24.96,186.06
18.11.0,358.686666666667,463.129696969697,3.98008795950544,0.343400138452672,14.1502997364954,-2.73729166666667,58.93208,8.85938,146830,6548724,Tjellingtjernbekk,719,018.2F,-999,22.04,74,2.4,1.67,0,4.74,,1.51,1.67,0,67.12,9.1,0,1.95,1.95,223,499,254,281,317,354,377,393,412,441,458,24.05,1.48
18.4.0,328.926363636364,495.121515151515,4.13555555555556,0.368048124239107,15.119034914361,-1.63202620967742,58.6683,8.97778,150984,6518807,Lundevann,714,018.A,5.58,20.77,9.13,27.38,49.93,1.92,4.59,,2.24,8.76,0,83.52,0,0.08,407.37,407.37,1,506,100,142,175,189,204,226,250,281,329,23.98,308.16
185.1.0,238.618181818182,484.224242424243,4.22771388266534,0.498211596150152,11.8936297760211,-0.481162634408602,68.67283,14.62927,484953,7617927,Gåslandsvatn,2055,185.611Z,5.54,11.29,7.01,4.6,5.6,2.37,33.55,,19.68,22.1,0,27.37,0.26,0,7.7,7.7,16,171,16,16,22,29,34,37,40,48,58,50.15,12.25
186.2.0,198.039090909091,413.905454545455,3.8582499377645,0.46443187230526,11.2702931488801,-2.81564516129032,69.0602,15.73423,529284,7661250,Ånesvatn,2057,186.2B,35.33,29.14,35.9,6.05,0.72,1.28,25.4,,7.6,11.18,0,34.23,22.24,0.02,47.04,47.038,10,584,12,21,31,56,104,170,222,271,345,38.54,57.01
189.3.0,319.905454545455,551.880303030303,5.32306115675048,0.464822904482434,10.7667621870883,-6.12393817204301,68.6449,16.72235,569986,7615747,Tennevikvatn,2060,189.2A,24.14,30.29,29.5,12.91,24.26,0.43,4.16,,3.26,8.51,0.04,39.21,43.3,0,85.41,85.41,40,1298,129,161,202,249,315,394,517,621,740,37.48,100.89
19.104.0,312.88696969697,364.19303030303,3.39430088789312,0.415963206600259,10.9259420289855,-5.57503024193548,59.29985,7.9851,100967,6594486,Songedalsåi,767,019.DCB52,18.61,20.98,14.72,11.91,15.69,0.12,8.44,,1.23,3.72,0,72.21,12.27,0,65.633,65.633,555,1175,633,690,736,759,777,800,829,861,903,27.49,56.93
19.107.0,301.793636363636,504.922121212121,4.03393826238486,0.356589972070754,15.7112747035573,-0.380769489247312,58.43536,8.70269,132635,6494410,Lilleelv,770,019.A1Z,3.83,15.91,7.47,13.88,17.4,2.51,0,,1.97,5.02,0,85.3,0,0,40.517,40.517,18,204,40,53,64,76,84,95,104,116,131,24.75,31.65
19.73.0,315.173939393939,380.177878787879,3.35817691477886,0.357505714867066,11.914127140975,-4.62731182795699,59.00204,8.29921,115460,6559587,Kilåi bru,747,019.DA7Z,21.37,21.95,27.84,11.57,18.28,0,7.02,,2.44,9.08,0,54.31,11.38,0,63.663,63.663,320,921,576,596,621,643,666,695,732,757,791,28.51,57.14
19.79.0,270.81696969697,308.981515151515,2.81250269687163,0.381254326646001,11.1240711462451,-5.37334005376344,59.23484,8.03641,103121,6586966,Gravå,751,019.DD1,108.57,25.58,105.4,4.53,5.57,3.8,4.6,,0.03,0.32,0,69.41,17.27,0,6.301,6.301,362,1063,503,559,605,615,659,735,805,876,933,21.69,4.21
19.80.0,303.595151515152,424.567878787879,3.5249547755373,0.360082435039211,14.8952404479578,-1.88503360215054,58.74981,8.51559,125128,6530359,Stigvassåi,752,019.C5Z,11.9,21.83,31.5,6,7.11,1.22,4.37,,0.24,1.79,0,91.4,0,0,14.486,14.486,148,429,187,208,225,241,263,283,304,325,356,27.27,12.47
19.82.0,291.810909090909,367.016060606061,3.11018006804415,0.350865670216648,13.9536561264822,-2.71047715053763,58.96851,8.50818,127065,6554680,Rauåna,753,019.E2,25.79,35.94,29.66,6.75,6.99,0.34,2.24,,0,0.11,0,90.71,1.23,0,8.908,8.908,222,760,289,313,345,371,396,396,447,488,537,23.9,6.72
19.96.0,317.604242424242,382.367272727273,3.3427118081487,0.338495412760608,12.4304940711462,-4.31684475806452,59.05231,8.65362,136291,6563180,Storgama ovf.,763,019.E5B,42.18,20.23,31.64,1.29,0.76,0,5.93,,6.17,11.53,0,29.96,52.05,0,0.584,0.584,580,685,595,604,606,609,615,624,636,648,661,39.88,0.73
191.2.0,266.788484848485,374.125454545455,3.64647498132935,0.447897122162317,9.3542325428195,-9.31983870967742,68.85762,17.94107,618348,7641320,Øvrevatn,2065,191.A5,6.54,55.79,18.35,38.74,61.96,2.09,2.47,,0.6,2.66,0.38,35.17,52.28,0,526.02,524.859,8,1503,137,233,340,449,564,680,786,886,1044,40.67,676.06
194.4.0,304.071212121212,548.44696969697,5.10160401626421,0.49646604669879,10.7846212121212,-5.66498991935484,69.23092,17.78346,610121,7682613,Mevatn,2071,194.A,5.12,23.65,9.5,22.29,32.31,1.27,14.34,,2.32,6.1,0.18,37.57,35.83,0.01,180.43,180.43,14,894,37,80,138,180,242,310,379,456,564,56.9,322.76
196.11.0,283.501515151515,251.263333333333,2.99947307277404,0.414614145589009,8.29043807641634,-11.1276411290323,69.02298,19.58108,682880,7663756,Lille Rostavatn,2081,196.F4,15.04,,11.52,48.93,50.08,0.16,1.88,,4,7.05,0.31,12.85,69.86,0,638.38,538.51,102,1586,338,570,648,690,740,797,866,946,1049,22.83,459.25
196.12.0,255.912121212121,317.065454545455,3.15333250352668,0.416345827038738,7.62701581027668,-11.5914247311828,68.72235,18.54942,643677,7627552,Lundberg,2082,196.ABA0,12.84,89.62,23.03,24.71,28.66,0.57,0.41,,0.01,0.6,2.15,16.36,76.95,0,246.53,241.74,93,1564,345,553,682,779,868,954,1052,1158,1289,53.05,412.43
196.7.0,241.313636363636,315.076060606061,3.44474566426023,0.408461754438613,10.62604743083,-7.79737903225806,69.26298,18.88207,653316,7688545,Ytre Fiskeløsvatn,2077,196.5B,12.69,22.94,11.96,10.18,15.56,1.21,4.6,,15.61,20.4,0,36.2,30.91,0,54.42,54.419,158,1233,158,161,190,228,273,318,402,546,713,29.54,50.81
197.10.0,316.142727272727,555.871515151515,5.21480955937267,0.468988079202203,10.0801943346509,-6.24634408602151,69.68038,18.5993,639422,7734340,Ersfjordelva,2286,197.6Z,35.39,,47.97,5.77,8.55,0,7.46,,0.98,3.7,0,14.98,63.39,0.11,18.63,18.63,91,1006,143,161,193,260,371,453,538,612,711,55.8,32.54
2.1036.0,252.462727272727,289.458787878788,2.55813293502614,0.332859547834943,14.8021245059289,-3.14195564516129,59.59277,11.40114,296867,6611566,Hæra v/Løkkeborg,323,002.B1B,1.38,,6.46,18.17,27.09,21.29,2.77,,0.32,3.09,0,70.64,0,0.15,133.46,133.46,127,329,138,153,160,169,178,189,201,217,236,16.79,70.72
2.13.0,301.25696969697,301.749393939394,3.04239897103975,0.379998022104685,6.31457839262187,-9.72311827956989,61.56064,8.91856,177225,6840320,Nedre Sjodalsvatn,30,002.DGF3,11.02,4.97,11.17,36.97,50.23,0,0.83,,4.19,9.15,8.32,5.41,71.77,0,480.7,480.7,940,2363,1014,1168,1319,1391,1462,1540,1643,1751,1891,38.4,582.45
2.142.0,277.243333333333,240.614545454545,2.38961745913202,0.3520339925181,13.6940909090909,-6.52957997311828,60.64117,12.04712,338530,6726448,Knappom,95,002.GA12,3.8,8.42,4.76,65.17,116.82,2.19,15.89,,0.09,1.83,0,72.73,0,0,1643.02,1285.806,170,807,270,311,342,378,412,447,479,511,556,13.82,716.4
2.235.0,197.622727272727,111.455454545455,1.40091859596714,0.282443905638479,8.88081357048748,-8.16489583333333,62.11988,10.06888,242915,6897323,Grimsmoen,141,002.ME0,6.38,15.47,12.78,47.59,71.04,3.03,5.11,,0.1,0.96,0,32.08,47.25,0,626.57,626.57,690,1708,832,920,961,1011,1065,1125,1188,1255,1367,10.7,211.5
2.265.0,238.266666666667,164.441818181818,1.79723591403203,0.329192711796782,9.92926548089592,-8.52696908602151,61.94611,11.08351,294592,6874376,Unsetåa,158,002.JF0,4.91,15.52,7.75,39.65,45.93,0.97,7.42,,0.09,0.97,0,40.48,46.61,0,620.09,620.09,338,1433,569,737,835,894,926,957,999,1051,1106,17.07,334.12
2.267.0,263.64303030303,176.832121212121,1.9507401875363,0.324295715810545,10.5733662714098,-8.2657123655914,61.71112,11.24189,301378,6847738,Mistra bru,159,002.JDA21,8.23,11.45,11.47,38.08,67.84,0,13.1,,0.05,0.91,0,51.68,27.66,0,549.58,549.58,320,1747,670,700,730,770,808,843,883,933,1007,15.17,263.22
2.268.0,221.661212121212,253.68303030303,2.43687909717036,0.353589482143811,6.27219696969697,-9.70656586021505,61.79955,8.44722,154948,6869267,Akslen,160,002.DHBA2,17.24,28.94,21.76,35.94,48.03,0.63,0.38,,0.06,1.9,10.9,11.4,71.21,0,789.27,789.27,476,2462,954,1138,1279,1383,1466,1558,1671,1803,1938,30.1,749.72
2.275.0,269.959090909091,444.184545454545,4.60247116421874,0.428972301508543,6.80315546772069,-9.15259408602151,61.85415,7.76288,119692,6879152,Liavatn,166,002.DHEC,18.78,31.49,19.81,20.17,28.12,0,0,,1.59,4.69,10.79,11.26,70.38,0,213.12,213.12,733,2077,905,1061,1216,1325,1398,1461,1516,1578,1690,47.97,322.65
2.279.0,288.620303030303,321.059090909091,2.93735706580367,0.339665326472083,13.6599341238472,-4.90913306451613,60.13345,11.0801,282324,6672734,Kråkfoss,168,002.CAB2,8.34,15.52,9,40.75,65.41,11.03,4.14,,0.42,3.91,0,75.6,0,3.22,435.21,435.21,105,807,180,204,309,384,443,493,532,566,621,18.98,259.76
2.280.0,290.904242424242,317.708787878788,2.93360965894947,0.334183600974398,13.1555368906456,-5.26909946236559,60.2364,10.9908,278066,6684484,Kringlerdal,169,002.CAC,10.58,15.44,11.32,28.64,47.89,2.64,5.65,,1.09,5.27,0,84.34,0,0,265.58,265.58,174,807,312,393,441,482,519,546,571,604,654,20.27,169.94
2.284.0,218.813333333333,138.010303030303,1.753500124471,0.281043464817903,7.24097826086957,-9.32051747311828,61.88439,9.06212,188123,6875574,Sælatunga,172,002.DHAA0,19.49,19.63,22.87,34.32,39.48,0.87,0.87,,0.08,1.53,0,8.52,83.71,0,457.52,457.52,423,1880,903,1077,1184,1286,1370,1436,1529,1611,1688,20.53,296.48
2.290.0,231.820606060606,293.625757575758,2.71671562525932,0.356992144118092,6.61392292490119,-9.27328293010753,61.7262,8.29597,146161,6861940,Brustuen,176,002.DHBC0,22.19,31.6,26.52,24.75,32.2,0.39,0.39,,0.55,3.94,8.27,7.87,73.23,0,254,254,665,2201,977,1131,1253,1347,1413,1465,1533,1626,1791,36.28,290.82
2.303.0,236.397575757576,177.680909090909,2.28749398390175,0.313248829461092,7.40737154150198,-9.33023857526882,62.08677,9.10108,192216,6897864,Dombås,186,002.DJA0,17.13,24.59,23.05,32.93,45.92,0,2.03,,0.09,3.24,0.2,11.15,79.24,0,493.62,493.62,575,2207,932,1080,1178,1244,1321,1399,1460,1547,1666,20.35,317.1
2.32.0,285.544848484849,172.332424242424,1.91018172765746,0.310841026095714,8.27048748353096,-8.97836021505376,61.85194,10.22212,248696,6866933,Atnasjø,43,002.LE,9.47,28.08,12.37,34.05,60.39,0.43,2.16,,1.08,1.73,0,22.23,68.21,0,463.3,463.3,701,2170,802,920,1018,1117,1203,1271,1356,1463,1591,22.11,323.21
2.323.0,366.822424242424,287.176666666667,3.09503775620281,0.335843896317364,12.4990546772069,-6.9913877688172,60.88483,11.32496,300585,6755550,Fura,201,002.DC3BZ,29.42,7.33,31,10.02,12.42,1.61,14.86,,0,0.06,0,79.51,0,0.19,36.41,36.41,349,758,428,485,527,557,581,606,633,664,694,11.28,12.96
2.346.0,172.060606060606,159.874545454545,2.14287113102647,0.276627756691595,8.30821146245059,-8.39769489247312,62.1892,8.53825,164055,6912039,Lesjaverk (Lesjaskogvatnet),217,002.DM20,83.87,17.75,64.93,11.07,12.42,1.8,1.04,,4.89,3.4,0.34,25.31,67.18,0.06,90.47,90.47,611,1741,637,762,958,1139,1229,1287,1351,1418,1474,19.32,55.15
2.415.0,296.471212121212,228.577575757576,2.35034188034188,0.33136225834723,9.56604743083004,-7.60867607526882,61.43769,9.49436,206575,6823937,Espedalsvatn,242,002.DFB6C,20.99,21.97,24.37,12.39,14.62,0.61,4.63,,4.83,7.87,0,40.98,40.5,0.01,94.42,94.42,721,1449,755,853,924,995,1055,1098,1134,1176,1226,18.5,55.12
2.439.0,311.496060606061,276.953636363636,2.76327690648079,0.341992195270557,10.3161429512516,-7.72175067204301,61.17847,10.89334,279236,6789603,Kvarstadseter,255,002.HC2,8.74,8.79,11.83,32.89,39.22,0.27,29.33,,0.05,2.4,0,40.26,16.53,0,375.06,375.06,669,1190,759,816,849,884,911,934,962,991,1031,29.19,345.43
2.451.0,286.440606060606,226.761515151515,2.30866318147872,0.329785853046925,11.2283926218709,-7.89632728494624,61.41275,11.74337,326203,6813101,Nordre Osa,263,002.JBC0,6.02,11.01,5.86,36.71,47.69,0.2,16.64,,0.04,1.09,0,53.22,18.6,0,447.66,447.66,457,1201,578,617,664,702,733,767,799,842,903,19.14,270.34
2.463.0,332.055757575758,293.586363636364,2.87272674466849,0.336426352385922,11.8935079051383,-6.82915658602151,60.95843,10.56219,259791,6766296,Vismunda,270,002.DD4A0,18.02,12.07,17.51,32.33,40.33,3.13,16.16,,0.04,1.56,0,74.56,0.52,0,191.8,191.8,188,1066,465,561,630,659,686,715,740,789,853,20.07,121.47
2.464.0,264.460909090909,215.446666666667,2.16420380051448,0.3087787860497,14.1596574440053,-5.8966061827957,60.77604,11.18649,292373,6743875,Svartelva,271,002.DC3A0,9.3,6.91,9.28,29.2,47.74,20.52,6.55,,0.19,1.31,0,67.68,0,0.87,458.04,458.04,138,758,191,220,241,267,299,333,392,475,550,8.21,118.68
2.607.0,186.558787878788,129.194242424242,1.51650070533566,0.287100598711185,8.41396903820817,-8.2841935483871,62.17458,9.42186,209764,6906137,Vålåsjø,86,002.MF8,23.83,14.27,27.03,14.33,24.56,0,8.77,,1.08,1.59,0,18.34,55.82,0,125.419,125.419,936,1708,953,976,1016,1068,1121,1185,1251,1317,1462,14.24,56.34
2.61.0,248.952424242424,186.908787878788,2.16291013193926,0.384475340533327,9.76656785243742,-7.48870295698925,62.64655,11.35361,313145,6951493,Orva,50,002.R4A,11.7,10.78,21.92,9.74,12.08,0.12,9.43,,6.37,12.93,0,36.64,14.82,0,25.41,25.41,701,1026,791,806,816,827,839,853,868,889,917,18.44,14.79
2.614.0,200.913939393939,143.482424242424,1.81997676541366,0.322548802293449,8.34775032938076,-8.48399529569893,61.85857,9.40475,205839,6871105,Rosten,311,002.DJ4,2.53,7.53,3.54,72.84,82.83,3.38,1.86,,0.03,1.42,0.27,22.1,67.55,0.05,1832.98,1832.98,319,2207,675,900,1027,1108,1186,1264,1340,1431,1545,17.62,1018.95
2.616.0,269.999090909091,250.170909090909,2.37864575553896,0.320820758352345,14.0261824769433,-5.33883400537634,60.35554,11.73308,319787,6695475,Kuggerud,313,002.EB11A,8.75,11.03,12.64,10.36,20.26,0,10.35,,1.14,2.07,0,84.89,0,0,48.3,48.3,169,502,310,340,357,364,375,388,401,421,444,14.76,22.49
2.633.0,259.358484848485,296.709393939394,2.64594805410339,0.345725188496834,14.9297661396574,-2.50096102150538,59.35952,11.51776,302085,6585263,Stortorp,2281,002.AD0,5.12,,6.42,13.21,16.68,4.12,5.39,,0.42,3.72,0,86.26,0,0.03,87.19,87.19,111,323,120,138,151,163,178,189,201,213,227,13.54,37.26
2.634.0,252.097575757576,230.086363636364,2.21866816031865,0.318990409481166,13.459825428195,-5.51982862903226,60.67131,10.81131,271220,6733473,Lena,2261,002.DC4B0,16.67,,15.34,22.63,29.59,34.85,4.36,,0.03,1.09,0,55,0,0.54,183.64,183.64,223,752,314,359,384,412,431,463,518,572,612,13.15,76.2
20.2.0,333.230909090909,423.809393939394,3.76218902995602,0.386494839852999,11.1841469038208,-4.77485551075269,58.83963,8.10052,102216,6542728,Austenå,776,020.E,11.44,22.42,13.23,41.58,52.78,0.07,5.59,,1.61,11.9,0,61.87,20.28,0,276.42,276.42,228,1146,602,666,708,738,763,792,819,852,895,36.57,319.94
200.4.0,277.429696969697,481.926666666667,4.38843249522861,0.451796076719604,10.3545388669302,-4.51299059139785,69.98093,19.10412,656700,7769022,Skogsfjordvatn,2101,200.6B,27.48,26.84,21.06,17.28,20.42,0.42,1.29,,10.12,14.8,0,21.25,49.73,0,136.01,136.01,19,1047,20,84,139,195,243,280,353,450,574,50.73,217.67
203.2.0,244.006060606061,383.794242424242,3.76618869803336,0.384706322331007,9.95460144927536,-6.84253696236559,69.73168,19.86212,687806,7743432,Jægervatn,2103,203.8B,30.36,,29.59,13.67,18.18,0,5.33,,7.75,9.6,5.33,28.8,44.8,0,93.75,93.75,3,1533,21,66,109,168,262,383,517,700,955,52,153.83
205.6.0,201.701515151515,159.421818181818,2.00720853041241,0.307265355117463,7.07764492753623,-11.7200907258065,69.17903,20.77847,728934,7685127,Didnojokka,2116,205.CA4,31.09,12.63,29.73,11.91,19.51,0,0.05,,0.54,6.08,0,0.69,92.2,0,110.87,108.9,522,1173,768,824,859,890,922,961,1006,1049,1076,27.07,94.84
208.2.0,245.448181818182,278.428484848485,2.91078001825575,0.368612392764541,9.1280533596838,-9.34274529569893,69.90022,21.37681,744188,7767523,Oksfjordvatn,2125,208.4B0,24.11,35.32,22.96,27.66,35.72,0.35,0.86,,2.16,4.46,0.66,21.31,66.39,0.01,265.83,265.83,8,1335,129,282,407,493,548,613,689,801,967,30.57,256.48
21.47.0,310.061818181818,426.405151515151,4.37859430752635,0.439623608795041,8.10882411067194,-7.11579301075269,59.60883,7.41962,72814,6632279,Lislefjødd,822,021.K5Z,37.65,16.24,47.99,7.76,10.38,0,12.49,,0.05,2.1,0,5.06,79.85,0,19.01,19.01,890,1432,1046,1070,1089,1106,1127,1159,1220,1288,1345,35.79,21.4
212.10.0,207.309696969697,130.222727272727,1.44875197079081,0.306601509793424,10.0822562582345,-12.7116498655914,69.42004,23.63504,837785,7725086,Masi,2148,212.E1,1.31,14.53,1.67,92.42,154.3,0.05,16.97,,0.28,7.16,0,35.4,31.06,0.01,5620.81,5543.98,0,1085,370,390,413,434,450,471,494,525,595,12.99,2303.67
212.27.0,199.820909090909,137.364848484849,1.60879346112356,0.323611182156201,9.49256587615283,-11.8787231182796,69.79906,23.24105,816763,7764890,Eibyelva v/Hammeren,2290,212.AB0,4.54,,7.02,40.65,52.9,0,6.15,,0.54,7.2,0,22.22,55.13,0,624.9,624.9,105,782,385,421,450,470,488,505,528,564,613,14.71,290.14
212.49.0,202.233939393939,204.864242424242,2.32977014355655,0.350089971502393,9.3053162055336,-10.0379032258065,70.02644,22.94164,802014,7788532,Halsnes,2157,212.2A,23.32,27.99,32.32,20.5,24.75,0.17,1.28,,0.91,3.47,0,13.85,73.54,0,145.05,145.05,30,1146,195,315,381,458,530,614,685,741,826,28.87,132.32
213.2.0,222.069090909091,216.664242424242,2.49051779935275,0.367701878886877,9.77275362318841,-10.2963810483871,70.10667,23.55344,823898,7800555,Leirbotnvatn,2160,213.1B,17.81,16.84,19.82,15.24,24.38,0,2.2,,1.09,5.6,0,12.88,76.55,0,135.47,135.466,161,716,308,380,415,437,457,484,514,543,572,25.93,110.63
213.4.0,182.817575757576,288.986060606061,2.91902414737366,0.411631843205191,10.1964657444005,-8.66578965053764,70.48684,23.95331,832718,7844730,Kvalsund,2162,213.6A0,21.52,22.61,22.54,13.85,20.01,0.01,0.65,,1.04,6.63,0,0.67,84.58,0.05,124.8,124.8,19,707,152,235,279,316,355,401,456,508,555,37.61,148.19
22.22.0,392.718484848485,651.292121212121,5.59084059414157,0.442438813126405,14.6714789196311,-0.283340053763441,58.09098,7.83511,78051,6461281,Søgne,846,022.1A11,6.54,24.21,7.13,29.63,50.35,4.99,5.99,,0.09,3.88,0,81.51,0.11,1,203.58,203.58,6,485,57,108,144,173,198,224,250,278,311,30.12,192.97
223.2.0,195.659090909091,158.184848484848,1.84022653721683,0.343628164774594,9.81453557312253,-11.3279166666667,70.13985,24.76063,868698,7811095,Lombola,2167,223.B0,4.79,10.29,6.79,51.09,79.57,0,3.86,,0.12,4,0,10.02,77.38,0,877.14,877.14,58,1136,317,363,387,411,435,463,502,549,623,19.25,530.87
230.1.0,191.238484848485,269.590606060606,2.69461787403535,0.439171193659822,10.6195849802372,-7.18848454301075,70.87923,27.50949,954469,7911030,Nordmannset,2177,230.62,23.71,20.33,21.1,6.82,9.95,0,0,,4.02,10.36,0,5.18,72.5,0,19.31,19.31,72,368,101,149,185,224,246,267,281,294,307,25.09,15.29
234.13.0,198.77696969697,130.870909090909,1.45335158907974,0.310250612977039,10.0350296442688,-12.5768481182796,69.42639,24.93834,888291,7733535,"Veahkkava, Iesjokka",2189,234.GBB10,1.68,,3.51,50.94,119.25,0,10.63,,0.86,10.49,0,31.75,37.47,0,2078.98,2078.98,178,1020,349,377,390,400,414,427,440,457,485,11.9,781.5
234.14.0,190.381818181818,122.566060606061,1.32889303792216,0.271563889997192,10.2243083003953,-12.7541767473118,69.39003,24.47423,870914,7726639,Cærrogæsjokka,2190,234.GBC1Z,11.79,,11.26,8.87,9.95,0,8.71,,0.18,2.18,0,71.9,13.07,0,45.9,45.9,295,492,344,357,366,376,383,390,401,413,434,9.9,14.34
234.18.0,197.412121212121,126.595454545455,1.44072774043648,0.334339559156689,10.7622826086957,-12.2818716397849,70.07034,28.01601,991883,7826523,Polmak nye,2194,234.C0,1,,1.61,218.32,310.75,0.21,11.58,,0.03,4.09,0,52.49,19.65,0.08,14161.4,9645.4,10,1064,234,275,300,324,347,370,392,417,452,11.74,5249.93
237.1.0,206.873636363636,228.316363636364,2.43632229690482,0.42424285826334,10.1544861660079,-8.40748655913979,70.56361,29.71188,1041686,7894752,Båtsfjord,2200,237.1Z,21.15,,36.13,5.95,6.81,0,0.4,,1.53,2.61,0,0.19,96.8,0,21.93,21.93,142,480,176,213,238,262,285,319,365,412,444,36.58,26.68
24.8.0,450.46,845.261818181818,7.29942909302133,0.484120797114546,13.3933399209486,-0.982741935483871,58.16056,7.06623,33807,6474075,Møska (Skolandsvatnet),860,024.AB,14.63,,17.85,19.54,30.53,0.82,2.47,,1.7,8.24,0,76.6,8.24,0,121.41,121.41,8,613,221,260,288,308,325,343,369,400,454,50.21,191.56
24.9.0,435.666060606061,737.567575757576,6.44597792714298,0.468260804821518,12.0718544137022,-3.04721102150538,58.40114,7.22335,46112,6499670,Tingvatn (Lygne),861,024.C1,12.2,27.31,14.8,30.26,42.95,1.15,6.13,,3.12,9.51,0,37.08,36.52,0.03,272.16,272.16,185,964,318,426,486,540,588,623,660,707,767,61.19,525.61
244.5.0,411.715757575758,307.848484848485,1.75485851796531,0.611696181638993,10.7008300395257,-10.8529905913979,69.91006,28.83404,1026386,7815885,Kjerringvatn,2350,244.ADB,13.79,,11.01,5.62,7.15,0,1.97,,7.69,14.66,0,0,83.41,0,22.65,22.65,274,432,280,292,299,307,317,328,341,357,379,13,9.29
246.9.0,200.790606060606,145.075454545455,1.61797942079495,0.317058892401358,11.5376778656126,-10.3649092741935,69.40015,29.71704,1073079,7768353,Sametielv,2214,246.CA20,3.51,,3.82,23.36,39.54,0,16.77,,1.94,13.8,0,51.33,13.27,0,255.69,254.18,43,292,69,95,103,119,131,145,158,174,196,9.96,80.03
247.3.0,250.313939393939,204.539696969697,2.22243382291926,0.361967346539763,11.3661824769433,-9.62874663978495,69.65991,30.38412,1091325,7802944,Karpelva,2216,247.3Z,10.26,,10.8,18.03,24.16,0.34,12.55,,0.35,4.99,0,51.25,11.97,0,128.89,110.39,20,404,108,138,165,179,192,207,228,252,279,16.28,64.35
25.24.0,326.393636363636,502.17,4.79621027300639,0.415708580996518,8.05066864295125,-7.14861559139785,59.15918,7.21481,55441,6583769,Gjuvvatn,879,025.M4,15.78,24.27,20.48,12.7,20.61,0,0.19,,6.96,16.4,0,0,83.31,0,96.98,96.98,950,1431,1020,1041,1074,1106,1139,1175,1219,1271,1314,65.3,199.83
25.32.0,435.221212121212,734.524545454546,6.54900838104722,0.465855047554742,11.0821212121212,-4.06167674731183,58.6695,6.97318,35132,6531137,Knabåni,881,025.CA,43.12,27.63,36.44,11.29,15.23,0.39,4.78,,0.45,5.94,0,12.27,67.91,0.08,46,46,378,988,516,603,651,702,758,797,835,859,893,68.17,98.96
25.51.0,418.351212121212,726.439393939394,6.34590573396399,0.47457279166283,12.7002931488801,-2.15098790322581,58.32257,6.975,30614,6492670,Krågehølen,2294,025.AA21,9.92,,14.23,37.39,49.45,1.92,7.06,,0.54,6.35,0,59.37,11.03,0.17,229.6,229.6,25,877,262,330,387,429,452,474,499,531,583,54.18,392.58
26.20.0,457.630606060606,830.823636363637,7.37668326279977,0.49383771937303,12.4463043478261,-2.23511424731183,58.54367,6.49791,5920,6520601,Årdal,899,026.BD,23.37,35.58,32.05,13.08,17.69,2.16,2.24,,2.27,8.98,0,38.08,24.64,0,77.25,77.25,113,748,245,340,402,449,478,505,534,568,602,68.08,165.42
26.21.0,415.583939393939,709.409090909091,6.24586175421127,0.460792317581784,12.4420652173913,-2.40639112903226,58.48967,6.77313,21124,6512618,Sandvatn,900,026.D1B0,17.88,25.02,14.41,6.27,14.13,1.38,8.8,,2.44,10.04,0,44.51,34.87,0,27.5,27.5,306,647,345,384,428,443,470,493,517,544,571,61.97,53.86
26.22.0,474.315454545455,836.889696969697,8.1404024562277,0.512430162676206,9.44378458498024,-5.43771841397849,58.93415,6.79225,28304,6561736,Deg,901,026.HB,10.14,26.91,19.12,11.91,15.8,0,0.09,,2.93,12.94,0,0,86.93,0,68.96,68.96,712,1186,865,903,914,935,957,980,1001,1024,1052,95.13,205.66
26.29.0,533.394848484848,884.281515151515,7.80378889718696,0.494504065484249,13.3985046113307,-0.714139784946237,58.35038,6.34421,-5758,6500337,Refsvatn,908,026.4AA3,18.38,38.24,20.38,12.99,16.67,1.59,1.08,,1,9.3,0,22.7,58.68,0,52.95,52.95,35,545,174,223,240,266,297,329,355,387,428,58.3,97.41
26.64.0,448.648181818182,722.627272727273,6.29730229856444,0.486116425283868,14.0101811594203,0.419694220430108,58.37135,6.25035,-10919,6503373,Rekedalselv,920,026.42,3.41,34.05,15.72,4.63,5.49,1.19,2.27,,1.4,7.02,0,37.88,47.58,0,10.11,10.11,107,311,140,161,176,189,205,221,237,253,266,46.02,14.71
27.15.0,537.506666666667,996.661212121212,8.96544270185047,0.5402382340805,11.4584255599473,-3.3059811827957,58.68172,6.23135,-7503,6537888,Austrumdal (Austrumdalsvatnet),931,027.CB,20.6,39,20.99,16.04,24.14,0.26,1.18,,5.48,13.18,0,11.36,66.92,0,60.85,60.85,309,933,435,546,596,629,659,680,704,739,788,95.87,184.09
27.16.0,527.203939393939,941.755757575758,8.74193013027965,0.531355892707136,11.1050362318841,-3.78726142473118,58.68554,6.49427,7715,6536343,Bjordal,932,027.AC0,22.58,37.51,26.51,16.51,25.27,0.07,1.34,,0.31,9.05,0,9.15,73.07,0,123.81,123.81,212,965,520,603,651,689,719,743,769,797,829,92.19,362.13
27.20.0,516.135757575758,946.349090909091,8.51286615218654,0.510936738041406,11.7044729907773,-3.12736559139785,58.60003,6.36139,-1177,6527860,Gya,935,027.3F,20.42,37.15,25.15,12.88,18.8,1.29,2.66,,0.54,7.62,0,19.95,55.83,0,60.49,60.49,203,900,409,494,524,561,597,629,654,681,718,97.04,185.98
27.42.0,392.918787878788,657.053636363636,5.52067297319725,0.488349400890962,14.1797727272727,1.49650201612903,58.48768,6.03369,-21793,6517924,Slevelandsåna,2309,027.3A,9.22,,7.56,4.15,4.63,10.63,1.77,,0.34,1.22,0,34.88,20.49,0,5.42,5.42,51,227,73,78,86,96,108,121,133,143,158,42.02,7.2
28.7.0,406.136363636364,670.773333333333,5.51485353912538,0.500384325520647,13.8100362318841,1.04118615591398,58.69291,5.64757,-40981,6543711,Haugland,949,028.3A0,10.19,15.81,9.25,17.28,27.47,21.44,1.31,,0.44,6.11,0,7.16,60.39,0.24,139.35,139.35,17,431,64,98,115,153,178,210,244,264,300,49.94,217.65
3.22.0,262.047575757576,311.643636363636,2.73323873537466,0.332849772030514,15.2883168642951,-2.82001008064516,59.55161,10.8561,265842,6608781,Høgfoss,330,003.C0,3.34,,3.27,34.28,62.63,19.99,1.2,,0.56,2.39,0,71.34,0,1.7,299.616,299.616,47,347,94,110,123,138,153,170,184,202,227,17.98,170.12
303.2.0,344.992424242424,484.73696969697,4.83535557215169,0.415257757271323,7.60848155467721,-11.0370161290323,68.14698,17.10627,587479,7560744,Kobvatn,2351,303.AC1C,3.02,,8.95,12.35,16.76,0,0,,16.83,22.97,13.3,0,61.67,0,82.7,82.7,690,1715,715,723,744,784,829,873,953,1075,1203,53.84,140.22
307.5.0,264.017878787879,250.979090909091,2.88680524437806,0.456780827601415,11.0147299077734,-6.77209677419355,64.4867,14.01565,452694,7151617,Murusjø,2219,307.3AB1,5.23,13.06,8.19,28.82,40.01,0.75,13.39,,5.53,8.9,0,53.7,17.12,0,345.62,298.05,310,1267,327,378,431,483,528,578,619,685,808,24.41,266.74
307.7.0,280.826666666667,389.905454545455,4.10224130777529,0.459029489964455,9.77863306982872,-7.98525873655914,64.88673,13.91636,448685,7196271,Landbru,2220,307.3BH,19.16,19.52,27.12,9.89,14.47,0,4.22,,6.18,10.54,0,31.48,41.65,0,61.37,57.77,480,1119,541,570,622,666,711,745,781,833,891,43.98,85.34
308.1.0,280.19,261.964545454545,3.01470666334744,0.453128086909175,10.6425395256917,-6.78697580645161,64.24487,13.76031,439898,7124887,Lenglingen,2225,308.1EB12,8.85,,9.42,28.52,43.22,0.52,21.54,,4.13,8.07,0,39.77,24.81,0.03,449.98,449.979,354,1387,414,506,555,596,625,658,694,734,793,32.75,467.7
311.4.0,248.001212121212,187.748484848485,2.00286781179985,0.38307512705704,10.5095191040843,-7.81603830645161,61.91996,11.94004,339350,6869050,Femundsenden (Femunden),2228,311.J11,1.22,,1.9,68.87,102.34,0.39,7.48,,11.81,18.42,0,32.44,27.08,0,1794.03,1462.642,652,1455,662,691,732,761,782,809,845,890,956,14.3,807.17
313.10.0,264.393636363636,243.164545454545,2.40481121898598,0.333938296486508,14.470303030303,-4.66260752688172,59.95464,12.18729,342930,6649698,Magnor,2255,313.B1C0,3.12,,6.68,146.87,38.49,7.54,5.03,,0.34,3.91,0,81.04,0,0.28,357.86,355.871,127,458,156,179,197,217,240,267,299,320,350,12.95,146.3
35.16.0,491.337878787879,797.948181818182,7.48880756783669,0.474730795943723,11.433768115942,-3.32916330645161,59.2809,6.38108,9752,6603122,Djupadalsvatn,1003,035.3C,38.52,25.65,34.78,13.19,20.36,0.37,3.84,,4.46,10.02,0,32.82,45.66,0,45.338,45.338,338,1129,385,455,522,588,626,681,735,785,891,70.28,100.56
35.9.0,450.697878787879,760.847575757576,7.48249937764501,0.476149651651713,9.91726943346509,-5.00233870967742,59.41438,6.6242,25406,6616139,Osali (Botnavatnet),997,035.AD,39.01,37.46,45.19,5.85,11.11,0,2.25,,6.53,12.88,0,10.4,74.4,0,22.478,22.478,646,1343,707,745,788,827,870,907,970,1037,1098,86.48,61.35
36.13.0,444.38,821.85696969697,7.63651813127541,0.488267556946903,9.65262516469038,-5.21824596774194,59.5815,6.53967,23006,6635259,Grimsvatn,1014,036.2C,24.35,39.06,51.04,7.59,8.27,0,1.33,,1.23,3.67,0,12.84,80.79,0,34.41,34.41,563,1535,662,707,747,784,834,901,996,1066,1196,92.4,100.33
36.9.0,353.192424242424,615.18303030303,5.97248941996515,0.468340375322687,6.47209486166008,-8.5041061827957,59.95409,6.98207,52890,6673445,Middal,1010,036.HA,72.17,29.37,72.43,8.8,9.27,0,0.11,,0.15,3.79,2.53,1.61,91.32,0,45.87,45.87,837,1683,1115,1225,1303,1367,1407,1454,1492,1525,1565,62.17,90.11
37.27.0,542.436363636364,999.625151515152,9.5996216081653,0.505698725621588,8.78068511198946,-6.03704637096774,59.72247,6.56497,26425,6650690,Breiborgvatn,1051,037.C1B,115.74,38.61,126.07,5.02,6.32,0,0,,2.81,7.24,0,1.93,90.83,0,12.43,12.43,663,1534,714,752,803,869,972,1048,1131,1231,1314,101.98,40
38.1.0,602.186666666667,1038.01060606061,9.15314911625591,0.531189476687548,11.9442457180501,-2.41495967741936,59.49883,5.91306,-13443,6630792,Holmen,1053,038.A0,29.43,,27.83,20.99,33.02,4.28,0.86,,1.56,7.71,0,29.97,42.81,0,116.88,116.88,12,1185,158,276,378,470,556,619,685,763,846,90.24,332.2
39.1.0,376.105454545455,615.877575757576,5.14828893867729,0.499899854840671,14.2526251646904,2.70295698924731,59.32949,5.44324,-42586,6615801,Tysvær,1054,039.52,1.48,3.75,6.36,3.24,3.61,0.3,17.37,,15.11,18.86,0,8.68,0,0,3.34,3.345,10,64,20,21,23,24,25,28,29,30,35,41.65,4.39
39.2.0,397.51303030303,630.772121212121,5.32043066965397,0.496762958340296,14.1746903820817,2.51654233870968,59.47989,5.30568,-47914,6633565,Kallandsvatnet,2278,039.80,18.41,,35.29,4.88,5.29,1.69,9.51,,7.91,13.8,0,33.59,0.78,0,7.68,7.68,10,241,11,21,27,32,37,44,53,68,101,41.74,10.05
41.1.0,536.786060606061,935.384848484848,8.68492490249772,0.529857239153688,11.3604710144928,-3.07474462365591,59.68285,6.01001,-5208,6650413,Stordalsvatn,1055,041.C,34.92,,36.93,23.07,29.44,3.11,1.05,,6.68,10.6,0,24.81,57.52,0,130.73,130.73,51,1294,89,251,441,583,681,764,864,931,1036,102.5,422.14
41.8.0,593.410303030303,1048.65121212121,9.72746991950875,0.530190753225731,10.0170454545455,-4.59891801075269,59.72001,6.18786,5297,6653180,Hellaugvatn,1061,041.D,704.7,,805.04,7.03,0.29,0,0.42,,2.01,7.76,0,8.88,82.1,0,27.49,27.49,271,1263,543,638,730,813,904,932,980,1034,1088,126.18,109.66
42.16.0,612.692121212121,1065.54606060606,9.84445025309103,0.519480791112657,10.8830335968379,-3.60275873655914,59.85848,6.06271,383,6669451,Fjellhaugen,1072,042.B1,61.96,40.83,77.05,3.89,4.91,1.28,2.72,,1,6.68,0,6.53,74.62,0,7.278,7.278,387,961,538,590,630,667,687,710,735,760,815,109.47,25.15
42.2.0,593.992424242424,946.956363636364,8.73305949713717,0.524048365224054,11.9477635046113,-2.15211693548387,59.81744,5.84441,-12402,6666583,Djupevad,1063,042.9B,64.78,43.06,60.41,7.79,13.87,0,1.37,,0.34,2.85,0,40.89,52.02,0,30.965,30.965,92,1141,217,295,360,452,547,665,756,844,926,108.32,105.93
48.5.0,360.192727272727,700.695757575758,6.80330429010041,0.477804490731742,7.82156785243742,-6.86397177419355,59.96939,6.72526,38833,6676909,Reinsnosvatn,1098,048.DB22,86.17,31.53,81.95,11.03,10.68,0,0,,3.34,9.13,0,7.47,76.35,0,120.5,120.5,595,1635,763,940,1060,1174,1232,1278,1325,1379,1442,76.35,289.72
50.1.0,228.080606060606,412.979090909091,4.22601194921583,0.426090030611909,7.18002964426878,-7.67699260752688,60.35738,6.74625,45408,6719745,Hølen,1109,050.1B2,21.25,25.43,29.39,27.94,45.05,0,0.32,,1.99,8.33,0.34,1.84,88.15,0,231.38,231.38,123,1686,1023,1153,1197,1230,1277,1324,1359,1390,1431,53.25,388.82
55.4.0,609.699696969697,1024.36757575758,9.04157331341797,0.564891676129873,12.5666073781291,-0.681088709677419,60.24881,5.4419,-27867,6717480,Røykenes,1136,055.7C,27.55,43.36,43.81,15.92,18.5,0.46,0.76,,2.24,3.9,0,52.16,31.66,0.22,50.09,50.09,53,960,78,127,189,257,307,363,452,552,665,100.52,159.11
6.10.0,302.65303030303,335.341818181818,2.94043813791387,0.335343511537154,14.3350164690382,-3.85577620967742,59.98723,10.80066,265785,6657426,Gryta,343,006.B1,45.25,21.04,43.68,3.41,4.86,0,1.56,,0.41,2.84,0,94.47,0,0,7.03,7.03,165,435,234,263,283,294,300,310,327,346,366,20.6,4.59
61.13.0,471.575454545455,743.379393939394,6.40524935689984,0.533930112092102,13.6564690382082,0.995745967741935,60.5028,5.36054,-28193,6746217,Haukåselva,2273,061.11,6.37,,10.72,3.9,5.03,8.25,2.84,,0.36,2.71,0,39.65,11.23,4.6,7.38,7.38,41,470,57,68,75,91,108,134,159,198,251,71.06,16.55
61.8.0,428.529393939394,765.322121212121,7.39599120404946,0.531610745655167,9.44946310935441,-5.2591935483871,60.56049,6.04126,9818,6747309,Kaldåen,1157,061.BB,51.69,26.39,59.93,6.05,7.89,0,0.34,,0.1,2.13,0,4.04,93.41,0,15.34,15.34,591,1128,777,811,839,865,884,904,928,955,1001,107.68,51.99
62.14.0,407.657272727273,668.250909090909,6.77439382623849,0.506041106120904,7.4570092226614,-7.61778561827957,60.69053,6.948,61027,6755281,Slondalsvatn,1171,062.FC1Z,42.79,34.49,49.47,8.17,14.27,0,0,,2.78,9.56,0,0,81.22,0,41.86,41.86,752,1602,959,1088,1124,1174,1211,1258,1305,1346,1435,71.8,94.76
62.15.0,340.049696969697,584.666666666667,5.72986557132188,0.506535579949598,9.02884716732543,-5.95483870967742,60.63039,6.49937,35793,6751712,Kinne,1172,062.FA3,21.37,31.21,23.39,36.45,51.34,0.98,2.35,,0.05,2.74,0.39,27.77,61.99,0,511.38,511.38,95,1602,550,718,825,924,1010,1084,1153,1231,1323,60.13,969.42
62.18.0,582.209090909091,1050.9096969697,10.1200912787321,0.551770500487085,10.4168214756258,-4.15053427419355,60.65359,5.9,3561,6758676,Svartavatn,1175,062.3Z,32.01,40.83,33.58,16.45,21.83,0,0,,0.32,2.76,0,20.72,64.91,0,72.41,72.41,219,1109,399,514,593,675,754,821,877,932,985,103.01,235.23
62.5.0,337.664848484849,608.504545454546,5.78834536552983,0.519316193847382,9.88332345191041,-5.04423387096774,60.62868,6.29254,24518,6753006,Bulken (Vangsvatnet),1163,062.E21,19.42,31.52,19.47,46.69,61.39,3.39,2.29,,0.87,3.48,0.37,32.7,53.41,0.27,1091.65,1091.65,47,1602,331,511,652,767,867,966,1058,1147,1253,64.63,2225.97
63.12.0,495.246666666667,931.451515151515,8.86851049705419,0.547289771894108,9.53637351778656,-5.30532594086022,60.79716,6.05462,14141,6773401,Fjellanger,1187,063.A8A,70.94,38.97,68.51,7.24,8.53,0.7,0.39,,0.89,4.52,0,5.69,86.05,0,12.83,12.83,403,1205,690,783,848,884,913,949,982,1023,1070,94.74,38.21
64.6.0,334.283333333333,649.609696969697,6.15114430337731,0.478965992704522,9.17743741765481,-5.78202284946237,60.98349,6.11228,20077,6793595,Solrenningsvatn (Vøvringevatnet),1193,064.D4,33.08,34.1,49.79,10.39,11.45,0,2.25,,2.68,6.24,0,7.2,83.66,0,53.37,53.37,596,1329,652,759,821,887,950,1019,1081,1141,1205,82.04,138.19
73.27.0,249.022424242424,265.241515151515,2.86823583105137,0.411966721342968,6.59342885375494,-9.29082997311828,61.17078,8.10155,129378,6801391,Sula,1277,073.F3,22.68,18.13,35.11,11.01,13.81,0,0.56,,3.78,9.14,0.43,0.13,89.48,0,30.32,30.32,1006,1808,1240,1264,1296,1325,1349,1392,1426,1467,1521,33.5,32.18
74.16.0,264.953333333333,362.857272727273,3.52746825989544,0.372691403998759,6.95568511198946,-8.64795026881721,61.40149,7.70727,111126,6829280,Langedalen,1298,074.BC,38.96,25.43,40.67,6.2,7.43,0,0,,0.6,4.2,0,0,92.44,0,23.8,23.803,1078,1589,1180,1210,1257,1307,1328,1352,1378,1406,1449,59.46,44.77
75.23.0,249.840606060606,350.969090909091,3.56584349846486,0.377677746290594,8.40419631093544,-7.326875,61.34702,7.39822,93991,6825127,Krokenelv,1326,075.2Z,79.09,38.13,83.55,12.39,14.65,0.02,0.3,,0.05,0.98,0,16.2,78.22,0,45.92,45.92,17,1467,706,940,1029,1106,1148,1188,1227,1265,1306,47.15,68.54
75.28.0,267.460303030303,373.995454545455,3.74883080242304,0.380666869003084,7.25042160737813,-8.38346774193548,61.38168,7.44511,96935,6828679,Feigumfoss,1331,075.3Z,47.33,32.56,59.32,12.43,17.04,0,0,,1.31,4.17,0,2.08,87.52,0,48.04,48.036,478,1594,977,1111,1186,1243,1294,1335,1372,1408,1452,45.19,68.43
77.3.0,333.598484848485,621.947575757576,5.73242718446602,0.475466709407393,9.09603096179183,-6.38372983870968,61.29784,7.00681,72486,6822181,Sogndalsvatn,1353,077.3B,28.53,,61.88,14.71,16.4,0.9,0.9,,2.3,3.61,3.61,20.73,59.5,0,110.93,110.93,395,1600,492,655,784,896,1000,1093,1196,1284,1400,76.49,269.16
78.8.0,437.028787878788,821.716666666667,8.12757198572733,0.526192676558417,8.49882411067194,-7.07220766129032,61.4487,6.74268,60541,6840653,Bøyumselv,1363,078.2C,16.39,47.38,74.96,11.08,5.78,0.22,0.34,,0.15,0.32,41.42,19.43,31.33,0,40.46,40.46,40,1731,206,457,759,1011,1225,1357,1487,1578,1619,108.3,138.96
79.3.0,385.212121212121,717.421515151515,6.96713882665339,0.478960991130163,9.86862977602108,-5.09982862903226,61.15987,6.27839,31630,6811910,Nessedalselv,1367,079.4B3,72.03,45.9,79.43,8.06,10.9,0,0,,1.33,3.33,0,23.33,66.67,0,30,30,289,1346,431,574,693,760,820,886,949,1040,1129,63.19,60.16
8.2.0,294.797272727273,315.307272727273,2.81112687743756,0.331036246636725,14.3748649538867,-3.72261760752688,59.89347,10.50814,248777,6648073,Bjørnegårdssvingen,365,008.A12,19.52,20.24,19.12,25.32,24.72,6.06,2.9,,0.07,1.72,0,82.97,0,3.97,190.77,190.77,5,680,121,197,262,308,341,372,399,436,493,19.06,114.82
8.6.0,304.431515151515,336.515454545455,2.92398141233093,0.321323643919734,14.985441370224,-3.37925403225806,59.94379,10.56635,252405,6653449,Sæternbekken,368,008.A1Z,62.59,,60.36,4.16,4.86,2.41,3.37,,0.01,0.16,0,93.26,0,0.48,6.28,6.28,102,420,173,197,208,221,240,259,280,318,381,17.56,3.48
8.8.0,303.714545454545,335.033939393939,2.90770143556551,0.324392791821971,15.0865118577075,-3.31689516129032,59.90805,10.56091,251835,6649495,Blomsterkroken,370,008.A1Z,17.27,,25.11,9.13,13.82,11.96,2.25,,0.29,1.36,0,72.64,0,8.37,22.59,22.59,21,458,103,131,158,183,208,229,262,317,379,18.4,13.12
80.4.0,555.766060606061,1036.36757575758,9.71703012198158,0.541149884679609,10.7109057971015,-3.67854502688172,61.20324,5.78553,5965,6820350,Ullebøelv,1383,080.22A3Z,59.66,37.31,70.14,5.65,5.88,0,0.12,,1.21,3.37,0,9.99,78.94,0,8.31,8.31,335,886,519,580,610,634,661,695,732,771,805,100.01,26.29
81.1.0,465.21696969697,835.906060606061,7.24628744502531,0.562149904003874,13.5373550724638,1.69949932795699,61.1352,4.93712,-40448,6819567,Hersvikvatn (Hagevatnet),1393,081.9B,118.73,28.57,92.35,5.09,3.47,0,1.55,,19.37,20.06,0,10.59,12.57,0,7.13,7.13,21,448,24,24,35,41,51,64,96,209,300,60.73,13.53
83.12.0,389.536666666667,698.389393939394,6.68445357231765,0.552597351666377,9.34204545454545,-5.80606518817204,61.36569,6.23159,32209,6835027,Haukedalsvatn ndf.,1402,083.D6,24.14,41.79,28.61,25.8,32.86,1.46,0.97,,5.26,8.76,8.76,16.54,58.38,0,205.55,205.55,297,1635,378,563,704,836,937,1034,1133,1255,1387,92.93,602.13
83.6.0,373.545151515152,716.715757575758,6.82079661438885,0.53001547077887,8.9070652173913,-6.27939516129032,61.34341,6.34683,38001,6831738,Byttevatn,1405,083.CA0,36.81,38.44,44.74,11.44,19.38,0,0,,1.66,9.57,0,6.7,80.35,0,104.54,104.54,485,1502,692,773,893,954,1014,1075,1123,1183,1254,101.71,335.35
83.7.0,431.064545454545,769.633333333333,7.57371338478135,0.545789299586347,7.89032279314888,-7.57326612903226,61.44324,6.46896,45951,6841930,Grønengstølsvatn,1406,083.F,36.85,41.3,49.48,10.57,14.51,0,0.43,,2.16,4.95,31.23,3.21,58.78,0,65.65,65.65,520,1635,762,892,983,1085,1184,1277,1357,1434,1505,119.39,246.82
84.20.0,376.370909090909,670.698787878788,6.24726578707161,0.531930391725577,10.7991007905138,-3.90300067204301,61.43177,6.06488,24363,6843550,Holsenvatn,1418,084.CB2,62.88,,67.97,11.72,14.31,2.74,0.74,,4.94,5.96,0,32.88,51.04,0,71.48,71.476,131,1425,203,374,512,602,674,756,826,899,1010,75.1,168.66
85.4.0,575.181212121212,1087.59848484848,9.96525516554643,0.576254798385401,11.2315283267457,-2.62400537634409,61.6484,5.44487,-4935,6872190,Straumstad (Solheimsvatnet),1434,085.4B,47.46,42.49,48.37,14.85,19.41,0.91,0.91,,2.42,5.47,3.65,24.62,51.06,0,109.68,109.68,6,1383,124,274,388,499,586,650,720,822,1009,119.88,414.71
86.10.0,481.428484848485,862.193636363636,7.88515392913451,0.542049713375688,10.5441930171278,-4.0321438172043,61.71941,5.9213,21226,6876428,Åvatn (Ommedalsvatnet),1448,086.B,25.7,36.56,33.17,20.87,31.65,0.62,3.7,,1.47,5.55,0.62,19.12,64.15,0,162.13,162.13,27,1465,392,484,554,632,697,777,859,945,1077,79.94,408.95
86.12.0,357.607878787879,761.800303030303,6.94918181063812,0.5232892626429,8.92408102766799,-6.03966733870968,61.81564,5.93555,23471,6886968,Skjerdalselv,1450,086.81B,87.52,52.84,96.32,6.81,5.83,0,0.32,,1.1,3.75,17.02,14.76,59.25,0,23.66,23.66,291,1465,417,620,781,915,1042,1117,1170,1229,1328,118.64,88.58
87.10.0,371.897878787879,666.751212121212,6.41817193593893,0.519219117835955,8.77785243741766,-6.66005376344086,61.7186,6.52064,52688,6872059,Gloppenelv v/Bergheim,2280,087.D22,6.35,,40.18,23.88,32.11,3.06,0.34,,0.26,1.22,16.54,17.54,52.92,0,218.6,218.6,138,1823,331,568,757,906,1045,1157,1274,1405,1558,79.37,547.24
88.11.0,285.92696969697,505.84,5.04753215500788,0.515896253707133,8.68031291172596,-6.97529569892473,61.9306,6.87882,74466,6893124,Strynsvatn,1470,088.B11,33.84,,32.7,33.46,41.68,1.46,0.04,,4.83,6.24,17.54,14.71,53.74,0.02,482.04,482.04,29,1933,195,548,795,987,1129,1250,1377,1497,1594,60.07,919.58
88.15.0,257.192424242424,458.838181818182,4.63505103310929,0.480275268465187,7.3503557312253,-8.5998689516129,61.96764,7.25823,94769,6894794,Grasdøla,1479,088.C2AA,58.85,,68.44,8.23,11.24,0,0,,2.14,7.26,8.31,3.43,79.29,0,34.37,34.37,594,1663,910,1055,1146,1186,1253,1323,1384,1443,1519,70.68,76.66
88.16.0,298.252121212121,529.681818181818,5.41480126130612,0.510746450871468,7.73749011857708,-8.18649193548387,61.91643,7.12472,87112,6889962,Hjelledøla,1480,088.C11,51.83,,53.6,21.07,27.22,0.43,0,,0.14,2.59,16.82,13.37,61.67,0,231.89,231.89,41,1933,568,833,1055,1155,1262,1372,1467,1543,1625,66.86,489.23
88.30.0,263.200909090909,504.714242424242,4.67449091361713,0.486831650417234,7.96056324110672,-7.67148521505376,61.79201,6.82233,69571,6878145,Nordre Oldevatn,1471,088.1B,18.78,49.17,59.15,20.46,22.44,1.65,0.01,,3.37,4.4,35.64,19.21,36.08,0,201.67,203.1,33,1953,166,525,856,1100,1299,1439,1555,1640,1735,75.38,479.71
88.4.0,292.230606060606,526.832727272727,5.24236826819351,0.502530682953612,7.81961791831357,-7.90142809139785,61.85897,6.88935,74018,6885121,Lovatn,1472,088.2B1,5.89,,69.78,21.7,19.25,0,0,,4.5,5.11,33.21,16.18,42.57,0,234.88,234.88,52,2071,211,614,930,1174,1337,1487,1592,1666,1744,64.68,479.41
90.1.0,397.652121212121,674.21303030303,5.68253754875114,0.549436584015651,12.6989756258235,0.227063172043011,61.84174,5.02764,-23554,6896868,Førdeelv,2283,090.21,131.09,,142.49,2.68,2.11,0,0,,0,0,0,0,33.44,0,2.99,2.99,45,501,109,142,179,222,263,293,318,341,377,73.8,6.94
91.2.0,511.990606060606,807.275151515152,7.10168450750975,0.560226116629894,12.6015283267457,0.330430107526882,62.16243,5.16649,-10883,6931180,Dalsbøvatn,1486,091.3A0,7.26,30.5,20.7,7.54,8.08,1.32,3.03,,4.72,10.19,0,3.65,66.52,0.04,25.72,25.72,47,527,60,105,160,204,252,313,358,403,455,63.48,51.44
96.3.0,401.777575757576,669.684848484848,5.95935441042237,0.519865230305448,12.9405994729908,0.765635080645161,62.36242,6.0073,35685,6946931,Hareidselv,1502,096.1A,35.22,23,31.85,8.36,9.12,6.94,1.49,,5.44,10.65,0,34.06,17.88,0.67,40.37,40.37,18,661,23,36,69,121,183,245,288,347,418,42.87,54.25
97.1.0,368.447575757576,641.367878787879,6.40436976184549,0.484844661330896,11.0135375494071,-3.23701612903226,62.33236,6.59336,65379,6939517,Fetvatn (Fitjavatnet),1504,097.7B,33.52,56.75,43.93,13.52,17.78,3.37,0,,1.54,1.12,2.25,35.93,48.29,0,89.05,89.05,1,1581,98,228,377,488,591,713,837,961,1121,88.86,249.71
97.5.0,365.506666666667,725.008181818182,6.87226122313501,0.52053589595816,10.5055731225296,-4.19336357526882,62.07259,6.4524,54299,6911720,Sleddalen,1507,097.2C1B,61.42,,117.48,3.88,3.86,2.57,3.48,,0,0.04,0,28.08,63.98,0,9.26,9.26,326,1379,359,427,515,634,740,832,913,978,1099,73.61,21.58
98.4.0,258.746060606061,454.938787878788,4.4287096506514,0.485090193163075,9.18987812911726,-6.37270833333333,62.06826,6.93157,79128,6908028,Øye ndf.,1513,098.6A4,50.11,57.58,56.66,15.1,20.69,2.24,0.36,,0.26,4.2,3.79,17.59,64.86,0,138.78,138.68,147,1848,428,607,765,877,982,1085,1183,1281,1408,61.37,269.61
